[
  {
    "name": "中缅原油与天然气管道",
    "desc": "“一油一气”并行管道，自若开（Kyaukphyu）经缅甸中部至中国云南昆明，是“一带一路”中国‑缅甸经济走廊核心能源通道。",
    "sign_time": "2005年12月：CNPC与缅方达成天然气30年购气MoU；2008年12月：中方签署油管建设协议；2009年6月：天然气、原油管道合同签署。",
    "location": "若开岛（Ramree Island）",
    "lat": 20.36,
    "lng": 93.58,
    "status": "天然气管线2013年10月投入运营，原油管线2017年6月投产，持续向中国输送能源"
  },
  {
    "name": "若开经济特区",
    "desc": "占地1 600 ha，由中缅政府发起的综合产业园区，含港口、工业区等，连通若开油气终端，是BRI缅甸段旗舰。",
    "sign_time": "2013年9月：SEZ构想首次提出；2014年5月26日：在内比都签署总体规划及招标管理协议。",
    "location": "若开镇, 若开省",
    "lat": 18.41,
    "lng": 93.55,
    "status": "仍在征地与基础设施开发中，重点推进工业园区与配套管廊建设"
  },
  {
    "name": "若开深水港",
    "desc": "SEZ下属深水港项目，由中信集团（70%）与缅方（30%）合资建设，可停靠万吨级货轮，缩短中国经海上进口中东原油路线。",
    "sign_time": "2014年1月13日：成立管理委员会；2015年12月30日：中信联合体中标；2018年11月8日：签署框架协议。",
    "location": "若开统辖的马代岛（Maday Island）",
    "lat": 19.36,
    "lng": 93.58,
    "status": "港区填海与码头桩基施工进行中，一期预计2025年完工",
    "img": "/images/ruokaiport.jpg"
  },
  {
    "name": "耶瓦水电站",
    "desc": "枢纽在缅甸中部密支那河上，由中国国际信托投资公司（CITIC）与中水电联合承建，装机容量≈790MW。",
    "sign_time": "2001年末：双方签署MoU；2005年9月2日：CITIC下属企业与缅方签正式合同；",
    "location": "曼德勒地区耶瓦镇",
    "lat": 21.99,
    "lng": 96.12,
    "status": "四台机组均已于2010–2011年间投运，全面商业运行中"
  },
  {
    "name": "哈吉水电站",
    "desc": "计划在萨尔温江上修建重力坝，装机≈1 365 MW，由中方水电企业与泰方、缅方合资。因环境与社会影响争议，项目长期停滞未开工。",
    "sign_time": "2007年4月：中国发改委批准；2009年6月：缅方签署建设协议。",
    "location": "克伦邦哈吉地区",
    "lat": 16.19,
    "lng": 98.66,
    "status": "环境评估与地方冲突尚未解决，工程仍处“拟建”阶段"
  },
  {
    "name": "勐稽水电三级联产",
    "desc": "分布于掸邦西部施威河（Shweli River）上的I/II/III级梯级电站，总装机≈1 420 MW，主体由云南联合电力公司（YUPD）按BOT模式建设。",
    "sign_time": "2004年2月：Shweli I勘测与前期；2006年8月：BOT协议签署。",
    "location": "掸邦南部南加木至南玛段",
    "lat": 23.96,
    "lng": 97.93,
    "status": "I级2009年竣工投运，II/III级相继完工，整体并网发电中"
  },
  {
    "name": "新仰光城建设",
    "desc": "位于仰光西岸30 000英亩新区，由仰光区政府与中国交建（CCCC）1.5亿美元PPP开发，含市政配套与住宅。因透明度及土地分配争议而饱受批评。",
    "sign_time": "2018年3月1日：缅方成立开发公司；2018年4月：与CCCC签署1.5亿美元框架协议。",
    "location": "仰光西岸（Yangon Region）",
    "lat": 16.75,
    "lng": 96.15,
    "status": "正在办理土地与基础设施规划批复，少量基础管线施工中；社会争议仍待化解"
  },
  {
    "name": "中缅铁路",
    "desc": "连接中国云南省昆明市至缅甸仰光的国际铁路，全长1920公里，是泛亚铁路西线重要路段，为一带一路倡议的关键基础设施。",
    "sign_time": "2011年：初始协议签署；2018年10月22日：签署木姐—曼德勒段可行性研究备忘录；2022年7月22日：大理至保山段开通。",
    "location": "中国云南省昆明市——缅甸仰光",
    "lat": 23.00,
    "lng": 98.50,
    "status": "停工"
  },
  {
    "name": "蒙育瓦铜矿项目",
    "desc": "位于缅甸实皆省的铜矿项目，包括莱比塘等分矿，是亚洲最大湿法炼铜工程，设计年产能10万吨阴极铜。",
    "sign_time": "2010年：项目启动；2012年3月：莱比塘铜矿奠基；2012年12月：成立调查委员会。",
    "location": "缅甸西北部实皆省南部蒙育瓦县钦敦江边的萨林基乡",
    "lat": 22.10,
    "lng": 95.00,
    "status": "停工"
  },
  {
    "name": "皎漂深水港",
    "desc": "位于缅甸若开邦皎漂经济特区的深水港，是第四大能源进口通道起点，旨在通过一带一路倡议提升印度洋区域物流能力。",
    "sign_time": "2009年12月：签署合作备忘录；2015年12月30日：中标；2018年11月8日：签署框架协议；2020年1月18日：股东协议和特许协议文本交换。",
    "location": "缅甸若开邦皎漂经济特区",
    "lat": 21.45,
    "lng": 93.55,
    "status": "停工"
  },
  {
    "name": "皎漂燃气电站",
    "desc": "位于缅甸若开邦皎漂市的燃气电站，装机容量13.5万千瓦，由中缅合作开发，旨在支持当地能源供应。",
    "sign_time": "2019年11月5日：购电协议签约；2022年3月20日：进入调试阶段。",
    "location": "缅甸若开邦皎漂市",
    "lat": 20.45,
    "lng": 93.55,
    "status": "投产"
  },
  {
    "name": "瑞丽江水电站",
    "desc": "位于缅甸掸邦瑞丽江的水电站项目，采用BOT模式运作，包括一级、二级和三级电站，总装机容量142万千瓦。",
    "sign_time": "2006年：项目启动；2009年11月12日：签署二级项目开发权谅解备忘录。",
    "location": "缅甸掸邦南坎县境内",
    "lat": 24.00,
    "lng": 97.80,
    "status": "投产"
  },
  {
    "name": "中缅油气管道",
    "desc": "从缅甸皎漂港至中国云南的原油和天然气管道，设计为第四大能源进口通道，绕过马六甲海峡以保障能源安全。",
    "sign_time": "2009年12月：签署权利与义务协议；2010年6月：开工建设；2013年5月30日：全线贯通。",
    "location": "缅甸若开邦、马圭省、曼德勒省和掸邦，从云南瑞丽进入中国",
    "lat": 19.45,
    "lng": 93.55,
    "status": "投产"
  }
] 